$GNRMC,005605.000,A,2233.029407,N,11358.854153,E,0.082,212.61,100925,,,F,V*30
$GQGSV,1,1,01,02,16,$GNGGA,005617.000,2233.029394,N,11358.854478,E,5,28,1.50,52.623,M,-2.409,M,14.0,0680*43
$GNRMC,005617.000,A,2233.029394,N,11358.854478,E,0.083,212.61,100925,,,F,V*33
$GPGSV,3,1,10,06,,,17,11,,,22,13,,,24,15,61,237,49,1*5B
$GPGSV,3,2,10,18,04,314,29,23,04,270,40,24,10,184,43,25,02,234,40,1*69
$GPGSV,3,3,10,29,46,293,34,30,13,064,32,1*61
$GPGSV,1,1,00,8*6D
$GBGSV,1,1,00,5*$GNGGA,005618.000,2233.029400,N,11358.854497,E,5,30,1.50,52.717,M,-2.408,M,15.0,0680*48
$GNRMC,005618.000,A,2233.029400,N,11358K,D*27
$GPGSV,3,3,10,29,46,293,34,30,13,064,33,1*60
$GPGSV,1,1,00,8*6D
$GPGSV,3,3,10,29,46,293,35,30,13,064,34,1*66
$GPGSV,1,1,00,8*6D
$GPGSV,3,3,10,29,46,293,33,30,13,064,35,1*61
$GPGSV,1,1,00,8*6D
$GPGSV,3,3,10,29,46,293,33,30,13,064,34,1*60
$GPGSV,1,1,00,8*6D
$GPGSV,3,3,10,29,46,293,33,30,13,064,35,1*61
$GPGSV,1,1,00,8*6D
$GPGSV,3,3,10,29,46,293,32,30,13,064,35,1*60
$GPGSV,1,1,00,8*6D
$GPGSV,3,3,09,30,13,064,35,1*58
$GPGSV,1,1,00,8*6D
$GPGSV,3,3,09,30,13,064,35,1*58
$GPGSV,1,1,00,8*6D
$GPGSV,3,3,09,30,13,064,35,1*58
$GPGSV,1,1,00,8*6D
$GPGSV,3,3,09,30,13,064,33,1*5E
$GPGSV,1,1,00,8*6D
$GPGSV,3,3,10,29,46,293,32,30,13,064,30,1*65
$GPGSV,1,1,00,8*6D
$GPGSV,3,3,11,25,02,234,41,29,46,293,32,30,13,063,30,1*56
$GPGSV,1,1,00,8*6D
$GPGSV,3,3,10,29,46,293,32,30,13,063,33,1*61
$GPGSV,1,1,00,8*6D
$GPGSV,3,3,09,30,13,063,34,1*5E
$GPGSV,1,1,00,8*6D
$GPGSV,1,1,00,8*6D
$GPGSV,1,1,00,8*6D
$GPGSV,1,1,00,8*6D
$GPGSV,3,3,09,30,13,063,34,1*5E
$GPGSV,1,1,00,8*6D
$GPGSV,1,1,00,8*6D
$GPGSV,1,1,00,8*6D
$GPGSV,3,3,09,30,13,063,36,1*5C
$GPGSV,1,1,00,8*6D
$GPGSV,3,3,09,30,13,063,36,1*5C
$GPGSV,1,1,00,8*6D
$GPGSV,3,3,09,30,13,063,35,1*5F
$GPGSV,1,1,00,8*6D
$GPGSV,3,3,09,30,13,063,33,1*59
$GPGSV,1,1,00,8*6D
$GPGSV,3,3,11,25,02,234,39,29,46,293,24,30,13,063,34,1*5A
$GPGSV,1,1,00,8*6D
$GNGGA,005644.000,2233.029383,N,11358.854109,E,5,29,2.31,52.458,M,-2.408,M,1.0,0680*7E
$GNRMC,005644.000,A,2233.029383,N,11358.854109,E,0.017,212.61,100925,,,F,V*3D
$GPGSV,3,1,12,05,46,007,19,06,,,23,11,,,25,13,,,24,1*59
$GPGSV,3,2,12,15,61,237,49,18,04,314,30,21,,,26,23,04,270,40,1*55
$GPGSV,3,3,12,24,10,184,42,25,02,234,40,29,46,293,20,30,13,063,35,1*6E
$GPGSV,1,1,00,8*6D
$GBGSV,5,5,20,42,27,248,32,45,,,21,59,,,32,60,44,242,39,$GNGGA,005645.000,2233.029382,N,11358.854085,E,5,30,2.23,52.413,M,-2.408,M,1.0,0680*7F
$GNRMC,005645.000,A,2233.029382,N,11358.854085,E,0.027,212.61,100925,,,F,V*3B
$GPGSV,3,1,12,05,46,007,17,06,,,21,11,,,23,13,,,24,1*53
$GPGSV,3,2,12,15,61,237,49,18,04,314,30,21,,,237,26,31,03,279,17,33,33,329,29,7*72
$GBGSV,5,3,20,14,,,22,16,19,167,38,21,64,307,37,26,02,$GNGGA,005646.000,2233.029379,N,11358.854022,E,5,31,2.23,52.375,M,-2.409,M,1.0,0680*72
$GNRMC,005646.000,A,2233.029379,N,11358.,D*2D
$GPGSV,3,3,10,29,46,293,19,30,13,063,32,1*69
$GPGSV,1,1,00,8*6D
$GPGSV,3,3,12,24,10,184,41,25,02,234,42,29,46,293,24,30,13,063,33,1*6D
$GPGSV,1,1,00,8*6D
$GPGSV,3,3,12,24,10,184,42,25,02,234,43,29,46,293,32,30,13,063,36,1*6D
$GPGSV,1,1,00,8*6D
$GPGSV,3,3,11,25,02,234,43,29,46,293,32,30,13,063,37,1*53
$GPGSV,1,1,00,8*6D
$GPGSV,3,3,10,29,46,293,34,30,13,063,36,1*62
$GPGSV,1,1,00,8*6D
$GPGSV,3,3,12,24,10,184,43,25,02,234,42,29,46,292,36,30,13,063,35,1*6B
$GPGSV,1,1,00,8*6D
$GNGGA,005653.000,2233.029460,N,11358.853943,E,5,31,2.23,52.344,M,-2.408,M,1.0,0680*73
$GNRMC,005653.000,A,2233.029460,N,11358.853943,E,0.024,212.61,100925,,,F,V*30
$GPGSV,1,1,00,8*6D
$GPGSV,1,1,00,8*6D
$GNGGA,005656.000,2233.029495,N,11358.853936,E,5,32,2.23,52.302,M,-2.409,M,1.0,0680*7E
$GNRMC,005656.000,A,2233.029495,N,11358.853936,E,0.063,212.61,100925,,,F,V*3E
$GPGSV,3,1,09,05,46,007,25,06,,,23,15,61,237,47,18,04,314,35,1*54
$GPGSV,3,2,09,23,05,270,41,24,10,184,42,25,02,234,43,29,46,292,35,1*65
$GPGSV,3,3,09,30,13,063,32,1*58
$GPGSV,1,1,00,8*6D
$GBGSV,6,6,$GNGGA,005657.000,2233.029526,N,11358.853940,E,5,32,2.23,52.330,M,-2.409,M,1.0,0680*76
$GNRMC,005657.000,A,2233.029526,N,11358.853940,E,0.058,212.61,100925,,,F,V*3F
$GPGSV,3,1,09,05,46,007,26,06,,,23,15,61,237,47,18,04,314,35,1*57
$GPGSV,3,2,09,23,05,270,40,24,10,184,41,25,02,234,43,29,46,292,35,1*67
$GPGSV,3,3,09,30,13,063,33,1*59
$GPGSV,1,1,00,8*6D
$GBGSV,6,6,$GNGGA,005658.000,2233.029559,N,11358.853951,E,5,32,2.21,52.296,M,-2.408,M,1.0,0680*7F
$GNRMC,005658.000,A,2233.029559,N,11358.,D*20
$GPGSV,3,3,09,30,13,063,31,1*5B
$GPGSV,1,1,00,8*6D
$GPGSV,1,1,00,8*6D
$GPGSV,3,3,09,30,13,063,30,1*5A
$GPGSV,1,1,00,8*6D
$GPGSV,3,3,09,30,13,063,30,1*5A
$GPGSV,1,1,00,8*6D
$GPGSV,1,1,00,8*6D
$GPGSV,1,1,00,8*6D
$GPGSV,1,1,00,8*6D
$GPGSV,1,1,00,8*6D
$GPGSV,1,1,00,8*6D
$GPGSV,1,1,00,8*6D
$GPGSV,1,1,00,8*6D
$GPGSV,1,1,00,8*6D
$GPGSV,1,1,00,8*6D
$GPGSV,1,1,00,8*6D
$GPGSV,3,3,09,30,13,063,23,1*58
$GPGSV,1,1,00,8*6D
$GPGSV,1,1,00,8*6D
$GPGSV,3,3,09,30,13,063,32,1*58
$GPGSV,1,1,00,8*6D
$GQGSV,1,1,00,8*6C$GNGGA,005716.000,2233.029458,N,11358.853644,E,5,32,1.54,51.753,M,-2.408,M,1.0,0680*71
$GNRMC,005716.000,A,2233.029458,N,11358.,D*22
